{
	"resultCode": 0,
	"resultDescription": "Resultado de la operacion Correcta",
	"resultValues": [{
		"line": 3,
		"secDetail": 10,
		"orderDetail": "1",
		"node": 1885,
		"distance": 0,
		"distancePreviousStop": 0,
		"name": "PUERTA DE TOLEDO",
		"latitude": 40.406371447241,
		"longitude": -3.7115396726671
	}, {
		"line": 3,
		"secDetail": 10,
		"orderDetail": "1",
		"node": 1884,
		"distance": 172,
		"distancePreviousStop": 172,
		"name": "GRAN VIA SAN FRANCISCO-PTA.TOLEDO",
		"latitude": 40.407665096581,
		"longitude": -3.7121307729721
	}, {
		"line": 3,
		"secDetail": 10,
		"orderDetail": "1",
		"node": 1882,
		"distance": 348,
		"distancePreviousStop": 176,
		"name": "GRAN VIA SAN FRANCISCO-AGUILA",
		"latitude": 40.409000899219,
		"longitude": -3.7131902237853
	}, {
		"line": 3,
		"secDetail": 10,
		"orderDetail": "1",
		"node": 1880,
		"distance": 571,
		"distancePreviousStop": 223,
		"name": "PZA.SAN FRANCISCO-BAILEN",
		"latitude": 40.410889505173,
		"longitude": -3.7137204867177
	}, {
		"line": 3,
		"secDetail": 10,
		"orderDetail": "1",
		"node": 1878,
		"distance": 713,
		"distancePreviousStop": 142,
		"name": "BAILEN-YESEROS",
		"latitude": 40.412051510006,
		"longitude": -3.7137445498308
	}, {
		"line": 3,
		"secDetail": 10,
		"orderDetail": "1",
		"node": 1876,
		"distance": 1009,
		"distancePreviousStop": 296,
		"name": "BAILEN-MAYOR",
		"latitude": 40.414702147315,
		"longitude": -3.7134189645141
	}, {
		"line": 3,
		"secDetail": 10,
		"orderDetail": "1",
		"node": 1886,
		"distance": 1348,
		"distancePreviousStop": 339,
		"name": "MAYOR-PZA.DE LA VILLA",
		"latitude": 40.415560457514,
		"longitude": -3.7100924206683
	}, {
		"line": 3,
		"secDetail": 10,
		"orderDetail": "1",
		"node": 1887,
		"distance": 1653,
		"distancePreviousStop": 305,
		"name": "MAYOR N\u00ba 21",
		"latitude": 40.416248291821,
		"longitude": -3.706636711476
	}, {
		"line": 3,
		"secDetail": 10,
		"orderDetail": "1",
		"node": 1888,
		"distance": 1991,
		"distancePreviousStop": 338,
		"name": "PTA.DEL SOL-CARRETAS",
		"latitude": 40.416695628073,
		"longitude": -3.7027128487571
	}, {
		"line": 3,
		"secDetail": 10,
		"orderDetail": "1",
		"node": 2004,
		"distance": 2400,
		"distancePreviousStop": 409,
		"name": "CEDACEROS-ZORRILLA",
		"latitude": 40.417046402879,
		"longitude": -3.6983471055214
	}, {
		"line": 3,
		"secDetail": 10,
		"orderDetail": "1",
		"node": 4108,
		"distance": 2817,
		"distancePreviousStop": 417,
		"name": "GRAN VIA-HORTALEZA",
		"latitude": 40.419928924155,
		"longitude": -3.6998927687378
	}, {
		"line": 3,
		"secDetail": 10,
		"orderDetail": "1",
		"node": 5376,
		"distance": 3087,
		"distancePreviousStop": 270,
		"name": "HORTALEZA-INFANTAS",
		"latitude": 40.421178360313,
		"longitude": -3.7003560040157
	}, {
		"line": 3,
		"secDetail": 10,
		"orderDetail": "1",
		"node": 278,
		"distance": 3382,
		"distancePreviousStop": 295,
		"name": "HORTALEZA-GRAVINA",
		"latitude": 40.423521654162,
		"longitude": -3.6987064117868
	}, {
		"line": 3,
		"secDetail": 10,
		"orderDetail": "1",
		"node": 5639,
		"distance": 3737,
		"distancePreviousStop": 355,
		"name": "PZA.DE SANTA BARBARA",
		"latitude": 40.426290363997,
		"longitude": -3.6967215897573
	}, {
		"line": 3,
		"secDetail": 10,
		"orderDetail": "1",
		"node": 1865,
		"distance": 3979,
		"distancePreviousStop": 242,
		"name": "STA.ENGRACIA-PZA.ALONSO MARTINEZ",
		"latitude": 40.42830549016,
		"longitude": -3.6957026096674
	}, {
		"line": 3,
		"secDetail": 10,
		"orderDetail": "1",
		"node": 4675,
		"distance": 4263,
		"distancePreviousStop": 284,
		"name": "STA.ENGRACIA-CARACAS",
		"latitude": 40.430713767046,
		"longitude": -3.69671772563
	}, {
		"line": 3,
		"secDetail": 10,
		"orderDetail": "1",
		"node": 1868,
		"distance": 4492,
		"distancePreviousStop": 229,
		"name": "STA.ENGRACIA-PZA.CHAMBERI",
		"latitude": 40.432654097199,
		"longitude": -3.6976455511265
	}, {
		"line": 3,
		"secDetail": 10,
		"orderDetail": "1",
		"node": 1869,
		"distance": 4718,
		"distancePreviousStop": 226,
		"name": "STA.ENGRACIA-GRAL.MTNEZ.CAMPOS",
		"latitude": 40.434595273617,
		"longitude": -3.6984319602776
	}, {
		"line": 3,
		"secDetail": 10,
		"orderDetail": "1",
		"node": 1870,
		"distance": 4917,
		"distancePreviousStop": 199,
		"name": "STA.ENGRACIA-GARCIA DE PAREDES",
		"latitude": 40.436293432328,
		"longitude": -3.6991805271379
	}, {
		"line": 3,
		"secDetail": 10,
		"orderDetail": "1",
		"node": 1397,
		"distance": 5288,
		"distancePreviousStop": 371,
		"name": "STA.ENGRACIA-BRETON LOS HERREROS",
		"latitude": 40.4394743902,
		"longitude": -3.7005340502386
	}, {
		"line": 3,
		"secDetail": 10,
		"orderDetail": "1",
		"node": 1398,
		"distance": 5556,
		"distancePreviousStop": 268,
		"name": "STA.ENGRACIA-RIOS ROSAS",
		"latitude": 40.441765723557,
		"longitude": -3.7015129228723
	}, {
		"line": 3,
		"secDetail": 10,
		"orderDetail": "1",
		"node": 1399,
		"distance": 5829,
		"distancePreviousStop": 273,
		"name": "STA.ENGRACIA-MARIA DE GUZMAN",
		"latitude": 40.444101730498,
		"longitude": -3.7025512861665
	}, {
		"line": 3,
		"secDetail": 10,
		"orderDetail": "1",
		"node": 1420,
		"distance": 6047,
		"distancePreviousStop": 218,
		"name": "STA.ENGRACIA N\u00ba 162",
		"latitude": 40.445961505556,
		"longitude": -3.7033842936338
	}, {
		"line": 3,
		"secDetail": 10,
		"orderDetail": "1",
		"node": 1568,
		"distance": 6439,
		"distancePreviousStop": 392,
		"name": "BRAVO MURILLO-PALENCIA",
		"latitude": 40.449194917338,
		"longitude": -3.703512344877
	}, {
		"line": 3,
		"secDetail": 10,
		"orderDetail": "1",
		"node": 1569,
		"distance": 6702,
		"distancePreviousStop": 263,
		"name": "BRAVO MURILLO-TERUEL",
		"latitude": 40.451548669932,
		"longitude": -3.7031123474316
	}, {
		"line": 3,
		"secDetail": 10,
		"orderDetail": "1",
		"node": 1860,
		"distance": 6905,
		"distancePreviousStop": 203,
		"name": "AVILA-BRAVO MURILLO",
		"latitude": 40.452687660483,
		"longitude": -3.7024755993451
	}, {
		"line": 3,
		"secDetail": 10,
		"orderDetail": "1",
		"node": 1861,
		"distance": 7255,
		"distancePreviousStop": 350,
		"name": "GRAL.PERON-COMANDANTE ZORITA",
		"latitude": 40.452352087511,
		"longitude": -3.6983858169688
	}, {
		"line": 3,
		"secDetail": 10,
		"orderDetail": "1",
		"node": 1855,
		"distance": 7627,
		"distancePreviousStop": 372,
		"name": "PZA.DE SAN AMARO",
		"latitude": 40.454963969052,
		"longitude": -3.6970082550997
	}, {
		"line": 3,
		"secDetail": 20,
		"orderDetail": "1",
		"node": 1855,
		"distance": 0,
		"distancePreviousStop": 0,
		"name": "PZA.DE SAN AMARO",
		"latitude": 40.454963969052,
		"longitude": -3.6970082550997
	}, {
		"line": 3,
		"secDetail": 20,
		"orderDetail": "1",
		"node": 1856,
		"distance": 232,
		"distancePreviousStop": 232,
		"name": "GRAL.CABRERA-GRAL.YAGUE",
		"latitude": 40.456250212847,
		"longitude": -3.6958492515155
	}, {
		"line": 3,
		"secDetail": 20,
		"orderDetail": "1",
		"node": 1857,
		"distance": 396,
		"distancePreviousStop": 164,
		"name": "GRAL.YAGUE-INFANTA MERCEDES",
		"latitude": 40.456761605312,
		"longitude": -3.6976943621731
	}, {
		"line": 3,
		"secDetail": 20,
		"orderDetail": "1",
		"node": 1858,
		"distance": 846,
		"distancePreviousStop": 450,
		"name": "BRAVO MURILLO-LOPE DE HARO",
		"latitude": 40.456589934682,
		"longitude": -3.7022402676271
	}, {
		"line": 3,
		"secDetail": 20,
		"orderDetail": "1",
		"node": 1859,
		"distance": 1079,
		"distancePreviousStop": 233,
		"name": "BRAVO MURILLO-FCOS.RODRIGUEZ",
		"latitude": 40.45456724253,
		"longitude": -3.7030140851219
	}, {
		"line": 3,
		"secDetail": 20,
		"orderDetail": "1",
		"node": 1570,
		"distance": 1442,
		"distancePreviousStop": 363,
		"name": "BRAVO MURILLO-CAROLINAS",
		"latitude": 40.451320879153,
		"longitude": -3.7035345159923
	}, {
		"line": 3,
		"secDetail": 20,
		"orderDetail": "1",
		"node": 1600,
		"distance": 1702,
		"distancePreviousStop": 260,
		"name": "BRAVO MURILLO-ALMANSA",
		"latitude": 40.448985428994,
		"longitude": -3.7038875186469
	}, {
		"line": 3,
		"secDetail": 20,
		"orderDetail": "1",
		"node": 1419,
		"distance": 2109,
		"distancePreviousStop": 407,
		"name": "BRAVO MURILLO-MAUDES",
		"latitude": 40.445605680159,
		"longitude": -3.7041199336111
	}, {
		"line": 3,
		"secDetail": 20,
		"orderDetail": "1",
		"node": 1382,
		"distance": 2355,
		"distancePreviousStop": 246,
		"name": "BRAVO MURILLO-CRISTOBAL BORDIU",
		"latitude": 40.443397686333,
		"longitude": -3.7042537191286
	}, {
		"line": 3,
		"secDetail": 20,
		"orderDetail": "1",
		"node": 4496,
		"distance": 2544,
		"distancePreviousStop": 189,
		"name": "BRAVO MURILLO-ISLAS FILIPINAS",
		"latitude": 40.441695005465,
		"longitude": -3.7042536357141
	}, {
		"line": 3,
		"secDetail": 20,
		"orderDetail": "1",
		"node": 807,
		"distance": 2934,
		"distancePreviousStop": 390,
		"name": "JOSE ABASCAL-BRAVO MURILLO",
		"latitude": 40.438509108995,
		"longitude": -3.7037192878573
	}, {
		"line": 3,
		"secDetail": 20,
		"orderDetail": "1",
		"node": 1862,
		"distance": 3262,
		"distancePreviousStop": 328,
		"name": "GRAL.ALVAREZ CASTRO-VIRIATO",
		"latitude": 40.436523144895,
		"longitude": -3.7028968422552
	}, {
		"line": 3,
		"secDetail": 20,
		"orderDetail": "1",
		"node": 1386,
		"distance": 3505,
		"distancePreviousStop": 243,
		"name": "GRAL.ALVAREZ CASTRO-ELOY GONZALO",
		"latitude": 40.434438440091,
		"longitude": -3.7020144693044
	}, {
		"line": 3,
		"secDetail": 20,
		"orderDetail": "1",
		"node": 1388,
		"distance": 3909,
		"distancePreviousStop": 404,
		"name": "TRAFALGAR-LUCHANA",
		"latitude": 40.430997254602,
		"longitude": -3.700493229674
	}, {
		"line": 3,
		"secDetail": 20,
		"orderDetail": "1",
		"node": 1863,
		"distance": 4314,
		"distancePreviousStop": 405,
		"name": "STA.ENGRACIA-JUNTA MUNICIPAL CHAMBERI",
		"latitude": 40.431780642722,
		"longitude": -3.6975775768198
	}, {
		"line": 3,
		"secDetail": 20,
		"orderDetail": "1",
		"node": 1864,
		"distance": 4724,
		"distancePreviousStop": 410,
		"name": "STA.ENGRACIA-PZA.ALONSO MARTINEZ",
		"latitude": 40.428276407334,
		"longitude": -3.6960441861295
	}, {
		"line": 3,
		"secDetail": 20,
		"orderDetail": "1",
		"node": 1228,
		"distance": 5031,
		"distancePreviousStop": 307,
		"name": "SAGASTA-MANUEL SILVELA",
		"latitude": 40.428510575135,
		"longitude": -3.6990409741432
	}, {
		"line": 3,
		"secDetail": 20,
		"orderDetail": "1",
		"node": 1226,
		"distance": 5381,
		"distancePreviousStop": 350,
		"name": "CARRANZA-GTA.BILBAO",
		"latitude": 40.429243545154,
		"longitude": -3.7029625115834
	}, {
		"line": 3,
		"secDetail": 20,
		"orderDetail": "1",
		"node": 3493,
		"distance": 5556,
		"distancePreviousStop": 175,
		"name": "CARRANZA-GTA.RUIZ JIMENEZ",
		"latitude": 40.429609764325,
		"longitude": -3.7049586764947
	}, {
		"line": 3,
		"secDetail": 20,
		"orderDetail": "1",
		"node": 1772,
		"distance": 5730,
		"distancePreviousStop": 174,
		"name": "GTA.DE RUIZ JIMENEZ",
		"latitude": 40.429277765525,
		"longitude": -3.7062166330779
	}, {
		"line": 3,
		"secDetail": 20,
		"orderDetail": "1",
		"node": 1770,
		"distance": 5994,
		"distancePreviousStop": 264,
		"name": "SAN BERNARDO-DAOIZ",
		"latitude": 40.427113098361,
		"longitude": -3.7066301691164
	}, {
		"line": 3,
		"secDetail": 20,
		"orderDetail": "1",
		"node": 1768,
		"distance": 6239,
		"distancePreviousStop": 245,
		"name": "SAN BERNARDO-MINISTERIO JUSTICIA",
		"latitude": 40.425035700132,
		"longitude": -3.7075043357149
	}, {
		"line": 3,
		"secDetail": 20,
		"orderDetail": "1",
		"node": 1766,
		"distance": 6525,
		"distancePreviousStop": 286,
		"name": "SAN BERNARDO-LA ESTRELLA",
		"latitude": 40.422475309605,
		"longitude": -3.7078075675083
	}, {
		"line": 3,
		"secDetail": 20,
		"orderDetail": "1",
		"node": 170,
		"distance": 6840,
		"distancePreviousStop": 315,
		"name": "GRAN VIA-PZA.ESPA\u00d1A",
		"latitude": 40.422896075988,
		"longitude": -3.7097098279899
	}, {
		"line": 3,
		"secDetail": 20,
		"orderDetail": "1",
		"node": 854,
		"distance": 7054,
		"distancePreviousStop": 214,
		"name": "PZA.ESPA\u00d1A-CTA.SAN VICENTE",
		"latitude": 40.422935920493,
		"longitude": -3.7120206740389
	}, {
		"line": 3,
		"secDetail": 20,
		"orderDetail": "1",
		"node": 1875,
		"distance": 8044,
		"distancePreviousStop": 990,
		"name": "BAILEN-MAYOR",
		"latitude": 40.414835526782,
		"longitude": -3.7137032487884
	}, {
		"line": 3,
		"secDetail": 20,
		"orderDetail": "1",
		"node": 1877,
		"distance": 8352,
		"distancePreviousStop": 308,
		"name": "BAILEN-YESEROS",
		"latitude": 40.41206821693,
		"longitude": -3.7139568742854
	}, {
		"line": 3,
		"secDetail": 20,
		"orderDetail": "1",
		"node": 1879,
		"distance": 8589,
		"distancePreviousStop": 237,
		"name": "GRAN VIA SAN FRANCISCO-PZA.SAN FCO.",
		"latitude": 40.409959898301,
		"longitude": -3.7139935205841
	}, {
		"line": 3,
		"secDetail": 20,
		"orderDetail": "1",
		"node": 1881,
		"distance": 8722,
		"distancePreviousStop": 133,
		"name": "GRAN VIA SAN FRANCISCO-AGUILA",
		"latitude": 40.408855580423,
		"longitude": -3.7133807923223
	}, {
		"line": 3,
		"secDetail": 20,
		"orderDetail": "1",
		"node": 1883,
		"distance": 8922,
		"distancePreviousStop": 200,
		"name": "GRAN VIA SAN FRANCISCO-PTA.TOLEDO",
		"latitude": 40.407277156281,
		"longitude": -3.7122209652475
	}, {
		"line": 3,
		"secDetail": 20,
		"orderDetail": "1",
		"node": 1885,
		"distance": 9057,
		"distancePreviousStop": 135,
		"name": "PUERTA DE TOLEDO",
		"latitude": 40.406371447241,
		"longitude": -3.7115396726671
	}]
}
